{"theatres":[{"id":"11105519425329108735","name":"Cineplex Cinemas Yonge-Dundas","address":"10 Dundas Street East, Toronto, ON, Canada","lat":43.65687,"lng":-79.3807509},{"id":"8692876190052118844","name":"SilverCity Yonge-Eglinton Cinemas","address":"2300 Yonge Street, Toronto, ON, Canada","lat":43.7072763,"lng":-79.39956219999999},{"id":"256816838674438773","name":"SilverCity Yorkdale Cinemas","address":"Yorkdale Shopping Centre, 3401 Dufferin Street, Toronto, ON, Canada","lat":43.7256702,"lng":-79.452168},{"id":"1920640989055236226","name":"The Beach Cinemas - Alliance Cinemas","address":"1651 Queen Street East, Toronto, ON, Canada","lat":43.66648439999999,"lng":-79.31446509999999},{"id":"4376986883017473512","name":"Cineplex Cinemas Don Mills VIP","address":"12 Marie Labatte Road, Toronto, ON, Canada","lat":43.7341509,"lng":-79.3461478},{"id":"17839179520721401985","name":"Cineplex Odeon Queensway Cinemas","address":"1025 The Queensway, Etobicoke, ON, Canada","lat":43.6209207,"lng":-79.51523879999999},{"id":"3960973341349579737","name":"Magic Lantern Theatres - Carlton Cinema","address":"20 Carlton Street at Yonge, Toronto, ON, Canada","lat":43.6616374,"lng":-79.3816808},{"id":"11105519425329108735","name":"Cineplex Cinemas Yonge-Dundas","address":"10 Dundas Street East, Toronto, ON, Canada","lat":43.65687,"lng":-79.3807509},{"id":"12752591746451010737","name":"Rainbow Cinemas Market Square","address":"80 Front Street East at Jarvis, Toronto, ON, Canada","lat":43.6492592,"lng":-79.3726488},{"id":"6199289547392391943","name":"Humber Cinemas","address":"2442 Bloor Street West, Toronto, ON, Canada","lat":43.6492795,"lng":-79.4850349},{"id":"256816838674438773","name":"SilverCity Yorkdale Cinemas","address":"Yorkdale Shopping Centre, 3401 Dufferin Street, Toronto, ON, Canada","lat":43.7256702,"lng":-79.452168},{"id":"1920640989055236226","name":"The Beach Cinemas - Alliance Cinemas","address":"1651 Queen Street East, Toronto, ON, Canada","lat":43.66648439999999,"lng":-79.31446509999999},{"id":"11105519425329108735","name":"Cineplex Cinemas Yonge-Dundas","address":"10 Dundas Street East, Toronto, ON, Canada","lat":43.65687,"lng":-79.3807509},{"id":"10876346825800103399","name":"Cineplex Cinemas Empress Walk","address":"5095 Yonge Street, Toronto, ON, Canada","lat":43.7691258,"lng":-79.41236359999999}]}